{
"type": "FeatureCollection",
"name": "Crossings",
"crs": { "type": "name", "properties": { "name": "urn:ogc:def:crs:OGC:1.3:CRS84" } },
"features": [
{ "type": "Feature", "properties": { "location": "Portland Rd. NE @ Wayside Tr. NE", "Construction_Year": null, "Median": null, "RRFP": null, "Curb_Extensions": null, "Grade_Separated": null, "School_Crossing": null }, "geometry": { "type": "Point", "coordinates": [ -123.00155013899996, 44.974596333000079 ] } },
{ "type": "Feature", "properties": { "location": "Portland Rd. NE @ Carleton Way NE", "Construction_Year": null, "Median": null, "RRFP": null, "Curb_Extensions": null, "Grade_Separated": null, "School_Crossing": null }, "geometry": { "type": "Point", "coordinates": [ -123.004697795999959, 44.971317344000056 ] } },
{ "type": "Feature", "properties": { "location": "12th St. SE @ Mill St. SE", "Construction_Year": null, "Median": null, "RRFP": null, "Curb_Extensions": null, "Grade_Separated": null, "School_Crossing": null }, "geometry": { "type": "Point", "coordinates": [ -123.028613404999987, 44.933965826000076 ] } },
{ "type": "Feature", "properties": { "location": "State St. East of I-5", "Construction_Year": null, "Median": null, "RRFP": null, "Curb_Extensions": null, "Grade_Separated": null, "School_Crossing": null }, "geometry": { "type": "Point", "coordinates": [ -122.989532089999955, 44.927925450000032 ] } },
{ "type": "Feature", "properties": { "location": "Madrona Ave. SE @ 22nd St. SE", "Construction_Year": null, "Median": null, "RRFP": null, "Curb_Extensions": null, "Grade_Separated": null, "School_Crossing": null }, "geometry": { "type": "Point", "coordinates": [ -123.013957033999986, 44.908313299000042 ] } },
{ "type": "Feature", "properties": { "location": "Commercial St. SE @ Bellevue St. SE", "Construction_Year": null, "Median": null, "RRFP": null, "Curb_Extensions": null, "Grade_Separated": null, "School_Crossing": null }, "geometry": { "type": "Point", "coordinates": [ -123.042374643999949, 44.936705135000068 ] } },
{ "type": "Feature", "properties": { "location": "17th St. NE @ Nebraska Ave. NE", "Construction_Year": null, "Median": null, "RRFP": null, "Curb_Extensions": null, "Grade_Separated": null, "School_Crossing": null }, "geometry": { "type": "Point", "coordinates": [ -123.014842272999942, 44.946147671000062 ] } },
{ "type": "Feature", "properties": { "location": "17th St. NE @ Chemeketa St. NE", "Construction_Year": null, "Median": null, "RRFP": null, "Curb_Extensions": null, "Grade_Separated": null, "School_Crossing": null }, "geometry": { "type": "Point", "coordinates": [ -123.019229920999976, 44.93738783200007 ] } },
{ "type": "Feature", "properties": { "location": "17th St. SE @ Mill St. SE", "Construction_Year": null, "Median": null, "RRFP": null, "Curb_Extensions": null, "Grade_Separated": null, "School_Crossing": null }, "geometry": { "type": "Point", "coordinates": [ -123.021764607999955, 44.932152933000054 ] } },
{ "type": "Feature", "properties": { "location": "25th St. SE @ Claude St. SE", "Construction_Year": null, "Median": null, "RRFP": null, "Curb_Extensions": null, "Grade_Separated": null, "School_Crossing": null }, "geometry": { "type": "Point", "coordinates": [ -123.010721757999988, 44.925430412000026 ] } },
{ "type": "Feature", "properties": { "location": "45th Ave. NE (Swegle Elementary School)", "Construction_Year": null, "Median": null, "RRFP": null, "Curb_Extensions": null, "Grade_Separated": null, "School_Crossing": null }, "geometry": { "type": "Point", "coordinates": [ -122.973499223999966, 44.95032240300003 ] } },
{ "type": "Feature", "properties": { "location": "Hawthorne Ave. NE @ Felina Ave. NE", "Construction_Year": null, "Median": null, "RRFP": null, "Curb_Extensions": null, "Grade_Separated": null, "School_Crossing": null }, "geometry": { "type": "Point", "coordinates": [ -122.991847765999978, 44.976788036000073 ] } },
{ "type": "Feature", "properties": { "location": "Broadway St. NE 2 Columbia St. NE", "Construction_Year": null, "Median": null, "RRFP": null, "Curb_Extensions": null, "Grade_Separated": null, "School_Crossing": null }, "geometry": { "type": "Point", "coordinates": [ -123.028636845999984, 44.959754934000046 ] } },
{ "type": "Feature", "properties": { "location": "Fairgrounds Rd. NE @ Hood St. NE", "Construction_Year": null, "Median": null, "RRFP": null, "Curb_Extensions": null, "Grade_Separated": null, "School_Crossing": null }, "geometry": { "type": "Point", "coordinates": [ -123.028254017, 44.952222262000078 ] } },
{ "type": "Feature", "properties": { "location": "Summer St. NE @ Hood St. NE", "Construction_Year": null, "Median": null, "RRFP": null, "Curb_Extensions": null, "Grade_Separated": null, "School_Crossing": null }, "geometry": { "type": "Point", "coordinates": [ -123.024108215999945, 44.951073846000043 ] } },
{ "type": "Feature", "properties": { "location": "Skyline Rd. S @ Joseph St. S", "Construction_Year": null, "Median": null, "RRFP": null, "Curb_Extensions": null, "Grade_Separated": null, "School_Crossing": null }, "geometry": { "type": "Point", "coordinates": [ -123.066101522999986, 44.886768524000047 ] } },
{ "type": "Feature", "properties": { "location": "Sunnyside Rd. SE @ Keglers Ln. SE", "Construction_Year": null, "Median": null, "RRFP": null, "Curb_Extensions": null, "Grade_Separated": null, "School_Crossing": null }, "geometry": { "type": "Point", "coordinates": [ -123.03610017699998, 44.887345383000081 ] } },
{ "type": "Feature", "properties": { "location": "Sunnyside Rd. SE @ Hilfiker Ln. SE", "Construction_Year": null, "Median": null, "RRFP": null, "Curb_Extensions": null, "Grade_Separated": null, "School_Crossing": null }, "geometry": { "type": "Point", "coordinates": [ -123.035527971999954, 44.890119803000061 ] } },
{ "type": "Feature", "properties": { "location": "Fairview Industrial Dr. SE", "Construction_Year": null, "Median": null, "RRFP": null, "Curb_Extensions": null, "Grade_Separated": null, "School_Crossing": null }, "geometry": { "type": "Point", "coordinates": [ -123.014573822999978, 44.901728581000043 ] } },
{ "type": "Feature", "properties": { "location": "Liberty Rd. S @ Holder Ln. SE", "Construction_Year": null, "Median": null, "RRFP": null, "Curb_Extensions": null, "Grade_Separated": null, "School_Crossing": null }, "geometry": { "type": "Point", "coordinates": [ -123.06145933099998, 44.875784761000034 ] } },
{ "type": "Feature", "properties": { "location": "Doaks Ferry Rd. NW (Chapman Elementary School)", "Construction_Year": null, "Median": null, "RRFP": null, "Curb_Extensions": null, "Grade_Separated": null, "School_Crossing": null }, "geometry": { "type": "Point", "coordinates": [ -123.079615521999983, 44.955942189000041 ] } },
{ "type": "Feature", "properties": { "location": "Orchard Heights Rd. NW @ Wilmington Ave. NW", "Construction_Year": null, "Median": null, "RRFP": null, "Curb_Extensions": null, "Grade_Separated": null, "School_Crossing": null }, "geometry": { "type": "Point", "coordinates": [ -123.076662594999959, 44.960332779000055 ] } },
{ "type": "Feature", "properties": { "location": "WIlmington Ave. NW (Straub Middle School)", "Construction_Year": null, "Median": null, "RRFP": null, "Curb_Extensions": null, "Grade_Separated": null, "School_Crossing": null }, "geometry": { "type": "Point", "coordinates": [ -123.07729185, 44.961159844000065 ] } },
{ "type": "Feature", "properties": { "location": "Orchard Heights Rd. NW (Straub Middle School)", "Construction_Year": null, "Median": null, "RRFP": null, "Curb_Extensions": null, "Grade_Separated": null, "School_Crossing": null }, "geometry": { "type": "Point", "coordinates": [ -123.07445049599994, 44.960272255000064 ] } },
{ "type": "Feature", "properties": { "location": "WIlmington Ave. NW west of Roadrunner St. NW", "Construction_Year": null, "Median": null, "RRFP": null, "Curb_Extensions": null, "Grade_Separated": null, "School_Crossing": null }, "geometry": { "type": "Point", "coordinates": [ -123.075429502999953, 44.963542283000038 ] } },
{ "type": "Feature", "properties": { "location": "Eola Dr. NW @ Eagle View Dr. NW", "Construction_Year": null, "Median": null, "RRFP": null, "Curb_Extensions": null, "Grade_Separated": null, "School_Crossing": null }, "geometry": { "type": "Point", "coordinates": [ -123.084447734999969, 44.942668789000038 ] } },
{ "type": "Feature", "properties": { "location": "Edgewater St. NW @ Kingwood Ave. NW", "Construction_Year": null, "Median": null, "RRFP": null, "Curb_Extensions": null, "Grade_Separated": null, "School_Crossing": null }, "geometry": { "type": "Point", "coordinates": [ -123.060125168999946, 44.93983843400008 ] } },
{ "type": "Feature", "properties": { "location": "Edgewater St. NW @ Gerth Ave. NW", "Construction_Year": null, "Median": null, "RRFP": null, "Curb_Extensions": null, "Grade_Separated": null, "School_Crossing": null }, "geometry": { "type": "Point", "coordinates": [ -123.058776911999985, 44.940430794000065 ] } },
{ "type": "Feature", "properties": { "location": "Edgewater St. NW @ McNary Ave. NW", "Construction_Year": null, "Median": null, "RRFP": null, "Curb_Extensions": null, "Grade_Separated": null, "School_Crossing": null }, "geometry": { "type": "Point", "coordinates": [ -123.056537267999943, 44.941393365000067 ] } },
{ "type": "Feature", "properties": { "location": "Edgewater St. NW @ Patterson St. NW", "Construction_Year": null, "Median": null, "RRFP": null, "Curb_Extensions": null, "Grade_Separated": null, "School_Crossing": null }, "geometry": { "type": "Point", "coordinates": [ -123.054319974999942, 44.942360350000058 ] } },
{ "type": "Feature", "properties": { "location": "Glen Creek Rd. NW west of Bartell Dr. NW", "Construction_Year": null, "Median": null, "RRFP": null, "Curb_Extensions": null, "Grade_Separated": null, "School_Crossing": null }, "geometry": { "type": "Point", "coordinates": [ -123.04993580699994, 44.950168159000043 ] } },
{ "type": "Feature", "properties": { "location": "Glen Creek Rd. NW east of Cornucopia St. NW", "Construction_Year": null, "Median": null, "RRFP": null, "Curb_Extensions": null, "Grade_Separated": null, "School_Crossing": null }, "geometry": { "type": "Point", "coordinates": [ -123.046842325999989, 44.950135256000067 ] } },
{ "type": "Feature", "properties": { "location": "Taybin Rd. NW east of 5th Ave. NW", "Construction_Year": null, "Median": null, "RRFP": null, "Curb_Extensions": null, "Grade_Separated": null, "School_Crossing": null }, "geometry": { "type": "Point", "coordinates": [ -123.050134290999949, 44.951918325000065 ] } },
{ "type": "Feature", "properties": { "location": "Center St. NE @ 13th St. NE", "Construction_Year": null, "Median": null, "RRFP": null, "Curb_Extensions": null, "Grade_Separated": null, "School_Crossing": null }, "geometry": { "type": "Point", "coordinates": [ -123.024127116999978, 44.939999722000039 ] } },
{ "type": "Feature", "properties": { "location": "Rosemont Ave. NW @ 3rd St. NW", "Construction_Year": null, "Median": null, "RRFP": null, "Curb_Extensions": null, "Grade_Separated": null, "School_Crossing": null }, "geometry": { "type": "Point", "coordinates": [ -123.063074942999947, 44.940837638000062 ] } },
{ "type": "Feature", "properties": { "location": "Rosemont Ave. NW @ 2nd St. NW", "Construction_Year": null, "Median": null, "RRFP": null, "Curb_Extensions": null, "Grade_Separated": null, "School_Crossing": null }, "geometry": { "type": "Point", "coordinates": [ -123.062309618999961, 44.939534574000049 ] } },
{ "type": "Feature", "properties": { "location": "22nd St. SE", "Construction_Year": null, "Median": null, "RRFP": null, "Curb_Extensions": null, "Grade_Separated": null, "School_Crossing": null }, "geometry": { "type": "Point", "coordinates": [ -123.017917147, 44.923607588000039 ] } },
{ "type": "Feature", "properties": { "location": "Pringle Rd. SE south of McGilchrist St. SE", "Construction_Year": null, "Median": null, "RRFP": null, "Curb_Extensions": null, "Grade_Separated": null, "School_Crossing": null }, "geometry": { "type": "Point", "coordinates": [ -123.027553051999973, 44.914232724000044 ] } },
{ "type": "Feature", "properties": { "location": "Center St. NE @ Norman Ave. NE", "Construction_Year": null, "Median": null, "RRFP": null, "Curb_Extensions": null, "Grade_Separated": null, "School_Crossing": null }, "geometry": { "type": "Point", "coordinates": [ -122.993334224999955, 44.939801867000028 ] } },
{ "type": "Feature", "properties": { "location": "Center St. NE @ Vinyard Ave. NE", "Construction_Year": null, "Median": null, "RRFP": null, "Curb_Extensions": null, "Grade_Separated": null, "School_Crossing": null }, "geometry": { "type": "Point", "coordinates": [ -122.994942656999967, 44.939833511000074 ] } },
{ "type": "Feature", "properties": { "location": "Center St. NE west of Park Ave. NE", "Construction_Year": null, "Median": null, "RRFP": null, "Curb_Extensions": null, "Grade_Separated": null, "School_Crossing": null }, "geometry": { "type": "Point", "coordinates": [ -123.000982097999952, 44.93990375900006 ] } },
{ "type": "Feature", "properties": { "location": "Center St. NE east of 23rd St. NE", "Construction_Year": null, "Median": null, "RRFP": null, "Curb_Extensions": null, "Grade_Separated": null, "School_Crossing": null }, "geometry": { "type": "Point", "coordinates": [ -123.004755965999948, 44.939963248000026 ] } },
{ "type": "Feature", "properties": { "location": "State St. (State Capitol)", "Construction_Year": null, "Median": null, "RRFP": null, "Curb_Extensions": null, "Grade_Separated": null, "School_Crossing": null }, "geometry": { "type": "Point", "coordinates": [ -123.030707060999987, 44.937914676000048 ] } },
{ "type": "Feature", "properties": { "location": "Court St. NE @ Waverly St. NE", "Construction_Year": null, "Median": null, "RRFP": null, "Curb_Extensions": null, "Grade_Separated": null, "School_Crossing": null }, "geometry": { "type": "Point", "coordinates": [ -123.028018592999956, 44.938512118000062 ] } },
{ "type": "Feature", "properties": { "location": "Court St. NE @ Capitol St. NE", "Construction_Year": null, "Median": null, "RRFP": null, "Curb_Extensions": null, "Grade_Separated": null, "School_Crossing": null }, "geometry": { "type": "Point", "coordinates": [ -123.028699873999983, 44.938673503000075 ] } },
{ "type": "Feature", "properties": { "location": "Court St. NE (Capitol)", "Construction_Year": null, "Median": null, "RRFP": null, "Curb_Extensions": null, "Grade_Separated": null, "School_Crossing": null }, "geometry": { "type": "Point", "coordinates": [ -123.029534040999977, 44.938884251000047 ] } },
{ "type": "Feature", "properties": { "location": "Court St. NE (Capitol)", "Construction_Year": null, "Median": null, "RRFP": null, "Curb_Extensions": null, "Grade_Separated": null, "School_Crossing": null }, "geometry": { "type": "Point", "coordinates": [ -123.030775904, 44.939189930000055 ] } },
{ "type": "Feature", "properties": { "location": "Jones Rd. SE (Judson Middle School)", "Construction_Year": null, "Median": null, "RRFP": null, "Curb_Extensions": null, "Grade_Separated": null, "School_Crossing": null }, "geometry": { "type": "Point", "coordinates": [ -123.04561290099997, 44.889368095000066 ] } },
{ "type": "Feature", "properties": { "location": "Pine St. NE @ Maple Ave. NE", "Construction_Year": null, "Median": null, "RRFP": null, "Curb_Extensions": null, "Grade_Separated": null, "School_Crossing": null }, "geometry": { "type": "Point", "coordinates": [ -123.024954270999956, 44.962263476000032 ] } },
{ "type": "Feature", "properties": { "location": "Fairgrounds Rd. NE @ Norway St. NE", "Construction_Year": null, "Median": null, "RRFP": null, "Curb_Extensions": null, "Grade_Separated": null, "School_Crossing": null }, "geometry": { "type": "Point", "coordinates": [ -123.025682169999982, 44.953523662000066 ] } },
{ "type": "Feature", "properties": { "location": "Pringle Rd. SE (Leslie Middle School)", "Construction_Year": null, "Median": null, "RRFP": null, "Curb_Extensions": null, "Grade_Separated": null, "School_Crossing": null }, "geometry": { "type": "Point", "coordinates": [ -123.025974843999961, 44.900265581000042 ] } },
{ "type": "Feature", "properties": { "location": "Liberty Rd. S (Liberty Elementary School)", "Construction_Year": null, "Median": null, "RRFP": null, "Curb_Extensions": null, "Grade_Separated": null, "School_Crossing": null }, "geometry": { "type": "Point", "coordinates": [ -123.061005648, 44.886905935000073 ] } },
{ "type": "Feature", "properties": { "location": "Commercial St. SE @ Royvonne Ave. SE", "Construction_Year": null, "Median": null, "RRFP": null, "Curb_Extensions": null, "Grade_Separated": null, "School_Crossing": null }, "geometry": { "type": "Point", "coordinates": [ -123.032438229999968, 44.885750828000027 ] } },
{ "type": "Feature", "properties": { "location": "Mission St. SE @ Church St. SE", "Construction_Year": null, "Median": null, "RRFP": null, "Curb_Extensions": null, "Grade_Separated": null, "School_Crossing": null }, "geometry": { "type": "Point", "coordinates": [ -123.038876751999965, 44.932191224000064 ] } },
{ "type": "Feature", "properties": { "location": "Market St. NE @ Tierra Dr. NE", "Construction_Year": null, "Median": null, "RRFP": null, "Curb_Extensions": null, "Grade_Separated": null, "School_Crossing": null }, "geometry": { "type": "Point", "coordinates": [ -122.978673019999974, 44.95022362800006 ] } },
{ "type": "Feature", "properties": { "location": "Winter St. SE @ Salem Health Hospital", "Construction_Year": null, "Median": null, "RRFP": null, "Curb_Extensions": null, "Grade_Separated": null, "School_Crossing": null }, "geometry": { "type": "Point", "coordinates": [ -123.034798268999964, 44.933254918000046 ] } },
{ "type": "Feature", "properties": { "location": "Winter St. SE @ Willamette University", "Construction_Year": null, "Median": null, "RRFP": null, "Curb_Extensions": null, "Grade_Separated": null, "School_Crossing": null }, "geometry": { "type": "Point", "coordinates": [ -123.033348086999979, 44.936291678000032 ] } },
{ "type": "Feature", "properties": { "location": "Pringle Pkwy. Undercrossing", "Construction_Year": null, "Median": null, "RRFP": null, "Curb_Extensions": null, "Grade_Separated": null, "School_Crossing": null }, "geometry": { "type": "Point", "coordinates": [ -123.035442127999943, 44.936540625000077 ] } },
{ "type": "Feature", "properties": { "location": "Church St. SE @ SAIF", "Construction_Year": null, "Median": null, "RRFP": null, "Curb_Extensions": null, "Grade_Separated": null, "School_Crossing": null }, "geometry": { "type": "Point", "coordinates": [ -123.037322355999947, 44.935818479000034 ] } },
{ "type": "Feature", "properties": { "location": "High St. SE @ Mill St. SE", "Construction_Year": null, "Median": null, "RRFP": null, "Curb_Extensions": null, "Grade_Separated": null, "School_Crossing": null }, "geometry": { "type": "Point", "coordinates": [ -123.038726044999976, 44.936539359000051 ] } },
{ "type": "Feature", "properties": { "location": "Market St. NE @ 19th St. NE", "Construction_Year": null, "Median": null, "RRFP": null, "Curb_Extensions": null, "Grade_Separated": null, "School_Crossing": null }, "geometry": { "type": "Point", "coordinates": [ -123.010519935, 44.948849894000034 ] } },
{ "type": "Feature", "properties": { "location": "State St. @ Winter St. SE", "Construction_Year": null, "Median": null, "RRFP": null, "Curb_Extensions": null, "Grade_Separated": null, "School_Crossing": null }, "geometry": { "type": "Point", "coordinates": [ -123.032513774999984, 44.93837075600004 ] } },
{ "type": "Feature", "properties": { "location": "State St. @ Waverly St. NE", "Construction_Year": null, "Median": null, "RRFP": null, "Curb_Extensions": null, "Grade_Separated": null, "School_Crossing": null }, "geometry": { "type": "Point", "coordinates": [ -123.028516388999947, 44.937354338000034 ] } },
{ "type": "Feature", "properties": { "location": "Court St. NE @ Winter St. NE", "Construction_Year": null, "Median": null, "RRFP": null, "Curb_Extensions": null, "Grade_Separated": null, "School_Crossing": null }, "geometry": { "type": "Point", "coordinates": [ -123.031939782999984, 44.939485884000078 ] } },
{ "type": "Feature", "properties": { "location": "Brown Rd. NE @ Maria Ave. NE", "Construction_Year": null, "Median": null, "RRFP": null, "Curb_Extensions": null, "Grade_Separated": null, "School_Crossing": null }, "geometry": { "type": "Point", "coordinates": [ -122.970752637999965, 44.957626557000026 ] } },
{ "type": "Feature", "properties": { "location": "Portland Rd. NE @ Rose Garden St. NE", "Construction_Year": null, "Median": null, "RRFP": null, "Curb_Extensions": null, "Grade_Separated": null, "School_Crossing": null }, "geometry": { "type": "Point", "coordinates": [ -123.006520468999952, 44.969460498000046 ] } },
{ "type": "Feature", "properties": { "location": "Sunnyview Rd. NE @ Scotsman Ln. NE", "Construction_Year": null, "Median": null, "RRFP": null, "Curb_Extensions": null, "Grade_Separated": null, "School_Crossing": null }, "geometry": { "type": "Point", "coordinates": [ -122.980901784999958, 44.953921433000062 ] } }
]
}
